City_ID,City,Country,Date,Lat,Lng,Max Temp,Humidity,Cloudiness,Wind Speed,Current Description,Rain Fall,Snow Fall
0,Atasu,KZ,2020-04-20 00:18:16,48.68,71.64,52.68,41,43,5.08,scattered clouds,0.0,0.0
1,Dolinsk,RU,2020-04-20 00:18:16,47.35,142.8,46.4,49,100,11.18,overcast clouds,0.0,0.0
2,Albany,US,2020-04-20 00:18:16,42.6,-73.97,57.0,47,90,4.0,light rain,0.22,0.0
3,Araceli,PH,2020-04-20 00:18:16,10.55,119.99,84.33,79,59,17.18,light rain,1.85,0.0
4,Tazovskiy,RU,2020-04-20 00:18:17,67.47,78.7,34.27,98,100,9.42,light rain,0.26,0.0
5,Hermanus,ZA,2020-04-20 00:18:17,-34.42,19.23,61.0,94,38,1.99,scattered clouds,0.0,0.0
6,Mataura,NZ,2020-04-20 00:14:53,-46.19,168.86,55.99,65,72,5.01,broken clouds,0.0,0.0
7,Tuktoyaktuk,CA,2020-04-20 00:18:19,69.45,-133.04,10.4,85,90,10.29,light snow,0.0,0.0
8,Manicore,BR,2020-04-20 00:18:19,-5.81,-61.3,80.6,88,75,4.7,thunderstorm,0.0,0.0
9,Mattru,SL,2020-04-20 00:18:19,7.62,-11.83,78.15,86,100,2.51,light rain,0.16,0.0
10,Atar,MR,2020-04-20 00:18:19,20.52,-13.05,71.76,20,0,8.34,clear sky,0.0,0.0
11,Havelock,US,2020-04-20 00:14:24,34.88,-76.9,68.0,89,100,1.99,light rain,0.5,0.0
12,Luchegorsk,RU,2020-04-20 00:18:20,46.48,134.26,50.14,47,100,11.9,overcast clouds,0.0,0.0
13,Nicoya,CR,2020-04-20 00:15:02,10.15,-85.45,91.4,43,20,11.41,few clouds,0.0,0.0
14,Nikki,BJ,2020-04-20 00:18:20,9.94,3.21,79.23,64,100,11.83,light rain,0.34,0.0
15,San Patricio,MX,2020-04-20 00:18:20,19.22,-104.7,75.2,78,5,23.04,clear sky,0.0,0.0
16,Murdochville,CA,2020-04-20 00:18:21,48.96,-65.5,30.33,82,39,5.99,scattered clouds,0.0,0.0
17,Faanui,PF,2020-04-20 00:18:21,-16.48,-151.75,82.83,75,60,15.23,light rain,0.37,0.0
18,Cherskiy,RU,2020-04-20 00:18:21,68.75,161.3,9.03,93,100,7.92,light snow,0.0,0.16
19,Guerrero Negro,MX,2020-04-20 00:04:18,27.98,-114.06,64.09,68,93,21.43,overcast clouds,0.0,0.0
20,Den Helder,NL,2020-04-20 00:15:52,52.96,4.76,48.2,61,0,20.8,clear sky,0.0,0.0
21,Butaritari,KI,2020-04-20 00:18:22,3.07,172.79,83.39,73,23,8.81,light rain,0.95,0.0
22,Salalah,OM,2020-04-20 00:18:22,17.02,54.09,82.4,69,40,5.82,scattered clouds,0.0,0.0
23,Upernavik,GL,2020-04-20 00:18:22,72.79,-56.15,26.91,84,94,26.26,overcast clouds,0.0,0.0
24,Busselton,AU,2020-04-20 00:18:22,-33.65,115.33,62.01,59,78,20.2,broken clouds,0.0,0.0
25,Ouadda,CF,2020-04-20 00:18:23,8.08,22.4,69.71,69,84,4.21,broken clouds,0.0,0.0
26,Port Alfred,ZA,2020-04-20 00:13:27,-33.59,26.89,68.0,86,14,7.36,few clouds,0.0,0.0
27,Mount Gambier,AU,2020-04-20 00:18:23,-37.83,140.77,60.8,67,40,18.34,scattered clouds,0.0,0.0
28,Tumpat,MY,2020-04-20 00:14:04,6.2,102.17,80.6,88,20,3.36,few clouds,0.0,0.0
29,Padang,ID,2020-04-20 00:18:26,-0.95,100.35,78.73,76,17,4.21,few clouds,0.0,0.0
30,Bredasdorp,ZA,2020-04-20 00:18:26,-34.53,20.04,53.6,87,6,4.7,clear sky,0.0,0.0
31,Micheweni,TZ,2020-04-20 00:18:28,-4.97,39.83,79.32,80,100,15.82,light rain,1.1,0.0
32,Urusha,RU,2020-04-20 00:18:28,54.05,122.9,21.7,71,93,14.52,overcast clouds,0.0,0.0
33,New Norfolk,AU,2020-04-20 00:18:29,-42.78,147.06,57.99,91,100,7.74,light rain,0.0,0.0
34,Lavrentiya,RU,2020-04-20 00:18:29,65.58,-171.0,21.18,91,100,8.16,overcast clouds,0.0,0.0
35,Yenagoa,NG,2020-04-20 00:18:29,4.92,6.26,75.58,90,95,1.5,overcast clouds,0.0,0.0
36,Vaini,TO,2020-04-20 00:15:11,-21.2,-175.2,84.2,74,40,8.05,scattered clouds,0.0,0.0
37,Rikitea,PF,2020-04-20 00:14:40,-23.12,-134.97,77.07,67,100,5.99,overcast clouds,0.0,0.0
38,Kashi,CN,2020-04-20 00:18:30,39.45,75.98,51.8,76,75,6.71,broken clouds,0.0,0.0
39,Mahebourg,MU,2020-04-20 00:18:30,-20.41,57.7,75.2,88,40,11.41,scattered clouds,0.0,0.0
40,Dudinka,RU,2020-04-20 00:09:09,69.41,86.18,37.4,74,100,26.84,overcast clouds,0.0,0.0
41,Traralgon,AU,2020-04-20 00:18:31,-38.18,146.53,69.01,55,86,5.99,overcast clouds,0.0,0.0
42,Bambous Virieux,MU,2020-04-20 00:08:33,-20.34,57.76,75.2,88,40,11.41,scattered clouds,0.0,0.0
43,Pevek,RU,2020-04-20 00:18:32,69.7,170.31,9.91,94,100,6.98,light snow,0.0,0.14
44,Mookane,BW,2020-04-20 00:18:32,-23.69,26.66,65.35,47,23,6.17,few clouds,0.0,0.0
45,Munster,DE,2020-04-20 00:13:38,51.96,7.63,48.2,36,0,6.93,clear sky,0.0,0.0
46,Hilo,US,2020-04-20 00:13:50,19.73,-155.09,82.4,51,1,12.75,clear sky,0.0,0.0
47,Hamilton,US,2020-04-20 00:14:26,39.18,-84.53,55.99,54,75,9.17,broken clouds,0.0,0.0
48,Punta Arenas,CL,2020-04-20 00:14:08,-53.15,-70.92,42.8,78,20,23.04,few clouds,0.0,0.0
49,Lebu,CL,2020-04-20 00:18:34,-37.62,-73.65,55.83,74,100,9.84,overcast clouds,0.0,0.0
50,Bethel,US,2020-04-20 00:18:35,41.37,-73.41,55.99,37,1,13.87,clear sky,0.0,0.0
51,Qaqortoq,GL,2020-04-20 00:08:48,60.72,-46.03,28.4,58,0,4.7,clear sky,0.0,0.0
52,Kutum,SD,2020-04-20 00:18:35,14.2,24.67,63.57,18,97,3.29,overcast clouds,0.0,0.0
53,Vardo,NO,2020-04-20 00:14:45,70.37,31.11,38.88,90,100,17.13,overcast clouds,0.0,0.0
54,Sao Filipe,CV,2020-04-20 00:18:36,14.9,-24.5,71.82,74,0,19.71,clear sky,0.0,0.0
55,Kapaa,US,2020-04-20 00:18:36,22.08,-159.32,80.6,61,1,10.29,clear sky,0.0,0.0
56,San Antonio,US,2020-04-20 00:16:36,29.42,-98.49,91.4,11,1,9.17,clear sky,0.0,0.0
57,Launceston,AU,2020-04-20 00:18:37,-41.45,147.17,54.0,93,90,17.22,moderate rain,0.0,0.0
58,Poiana Blenchii,RO,2020-04-20 00:18:37,47.3,23.75,41.0,71,55,2.24,broken clouds,0.0,0.0
59,Rosarito,MX,2020-04-20 00:18:35,32.33,-117.03,62.01,72,90,17.22,overcast clouds,0.0,0.0
60,Ancud,CL,2020-04-20 00:18:37,-41.87,-73.82,50.0,81,40,5.82,scattered clouds,0.0,0.0
61,Santa Fe,AR,2020-04-20 00:05:44,-31.63,-60.7,73.0,63,0,3.0,clear sky,0.0,0.0
62,Mareeba,AU,2020-04-20 00:18:38,-17.0,145.43,88.0,81,53,3.0,broken clouds,0.0,0.0
63,Kaitangata,NZ,2020-04-20 00:18:38,-46.28,169.85,55.22,54,52,12.28,broken clouds,0.0,0.0
64,Georgetown,MY,2020-04-20 00:14:29,5.41,100.34,80.6,94,20,3.91,few clouds,0.0,0.0
65,Coihaique,CL,2020-04-20 00:18:38,-45.58,-72.07,41.0,93,40,8.05,scattered clouds,0.0,0.0
66,Sitka,US,2020-04-20 00:18:38,57.05,-135.33,51.8,81,90,5.82,overcast clouds,0.0,0.0
67,Nanning,CN,2020-04-20 00:18:39,22.82,108.32,73.4,94,20,2.24,mist,0.0,0.0
68,Hithadhoo,MV,2020-04-20 00:15:55,-0.6,73.08,84.76,75,90,10.29,light rain,0.12,0.0
69,Kismayo,SO,2020-04-20 00:13:42,-0.36,42.55,79.99,83,100,17.22,light rain,0.66,0.0
70,Johannesburg,ZA,2020-04-20 00:13:42,-26.2,28.04,56.1,34,5,4.74,clear sky,0.0,0.0
71,Auki,SB,2020-04-20 00:18:40,-8.77,160.7,84.72,69,51,3.29,broken clouds,0.0,0.0
72,Awbari,LY,2020-04-20 00:18:40,26.59,12.78,82.09,16,26,23.04,scattered clouds,0.0,0.0
73,Qaanaaq,GL,2020-04-20 00:18:41,77.48,-69.36,15.82,84,75,16.4,broken clouds,0.0,0.0
74,Mahibadhoo,MV,2020-04-20 00:16:36,3.78,72.97,84.88,74,80,8.12,light rain,1.11,0.0
75,Roald,NO,2020-04-20 00:18:41,62.58,6.13,39.99,93,0,9.17,clear sky,0.0,0.0
76,Spring Hill,US,2020-04-20 00:14:31,28.48,-82.53,86.0,51,40,11.41,scattered clouds,0.0,0.0
77,Ilulissat,GL,2020-04-20 00:15:57,69.22,-51.1,30.2,54,100,23.04,overcast clouds,0.0,0.0
78,Barrow,US,2020-04-20 00:18:42,71.29,-156.79,14.0,78,90,5.82,light snow,0.0,0.0
79,Beihai,CN,2020-04-20 00:18:42,21.48,109.1,75.4,92,28,8.34,scattered clouds,0.0,0.0
80,Buenos Aires,AR,2020-04-20 00:09:38,-34.61,-58.38,70.0,77,0,1.12,clear sky,0.0,0.0
81,Atuona,PF,2020-04-20 00:14:43,-9.8,-139.03,82.89,73,38,12.97,scattered clouds,0.0,0.0
82,Ushuaia,AR,2020-04-20 00:18:43,-54.8,-68.3,41.0,86,90,27.51,overcast clouds,0.0,0.0
83,Nikolskoye,RU,2020-04-20 00:18:43,59.7,30.79,37.4,94,67,4.47,broken clouds,0.0,0.0
84,Aripuana,BR,2020-04-20 00:15:02,-9.17,-60.63,75.76,88,95,1.66,light rain,0.37,0.0
85,Saskylakh,RU,2020-04-20 00:18:43,71.92,114.08,17.15,95,2,3.6,clear sky,0.0,0.0
86,Tasiilaq,GL,2020-04-20 00:18:43,65.61,-37.64,32.0,92,100,3.36,overcast clouds,0.0,0.0
87,Goderich,CA,2020-04-20 00:09:10,43.75,-81.72,37.99,65,27,12.86,scattered clouds,0.0,0.0
88,Chaohu,CN,2020-04-20 00:18:44,31.6,117.87,61.0,100,70,6.71,mist,0.0,0.0
89,Springbok,ZA,2020-04-20 00:18:44,-29.66,17.89,53.87,40,0,3.18,clear sky,0.0,0.0
90,Shelburne,CA,2020-04-20 00:18:45,44.08,-80.2,35.6,80,20,11.41,few clouds,0.0,0.0
91,Port Hardy,CA,2020-04-20 00:15:18,50.7,-127.42,55.4,66,40,14.99,scattered clouds,0.0,0.0
92,Flin Flon,CA,2020-04-20 00:18:45,54.77,-101.86,39.2,51,75,16.11,broken clouds,0.0,0.0
93,Namwala,ZM,2020-04-20 00:18:45,-15.75,26.44,61.72,62,0,1.23,clear sky,0.0,0.0
94,Kenitra,MA,2020-04-20 00:14:24,34.26,-6.58,64.0,82,75,5.82,broken clouds,0.0,0.0
95,Bluff,NZ,2020-04-20 00:14:54,-46.6,168.33,55.99,65,78,5.01,light rain,0.2,0.0
96,Longyearbyen,SJ,2020-04-20 00:18:46,78.22,15.64,28.4,86,90,34.45,light snow,0.0,0.0
97,Ulladulla,AU,2020-04-20 00:08:48,-35.35,150.47,59.0,67,100,5.82,overcast clouds,0.0,0.0
98,Kaitong,CN,2020-04-20 00:18:48,44.81,123.15,33.3,89,100,26.75,moderate rain,10.16,0.0
99,Vila Franca Do Campo,PT,2020-04-20 00:15:43,37.72,-25.43,55.4,62,20,4.7,few clouds,0.0,0.0
100,Nicosia,CY,2020-04-20 00:17:41,35.17,33.37,62.6,82,34,8.05,scattered clouds,0.0,0.0
101,Xinzhou,CN,2020-04-20 00:18:48,38.41,112.73,47.32,31,0,11.32,clear sky,0.0,0.0
102,Mnogovershinnyy,RU,2020-04-20 00:18:49,53.94,139.92,22.15,95,100,11.65,light snow,0.0,1.35
103,Tiksi,RU,2020-04-20 00:18:49,71.69,128.87,14.04,91,94,6.31,overcast clouds,0.0,0.0
104,Machilipatnam,IN,2020-04-20 00:18:49,16.17,81.13,78.22,91,14,5.48,few clouds,0.0,0.0
105,Saryg-Sep,RU,2020-04-20 00:18:49,51.5,95.6,37.67,49,0,2.68,clear sky,0.0,0.0
106,Yulara,AU,2020-04-20 00:18:50,-25.24,130.99,80.6,36,25,12.75,scattered clouds,0.0,0.0
107,Tacuarembo,UY,2020-04-20 00:18:50,-31.73,-55.98,64.29,60,0,5.79,clear sky,0.0,0.0
108,Jamestown,US,2020-04-20 00:15:43,42.1,-79.24,44.6,81,75,13.87,broken clouds,0.0,0.0
109,Avarua,CK,2020-04-20 00:18:50,-21.21,-159.78,82.4,69,2,8.05,clear sky,0.0,0.0
110,Hirara,JP,2020-04-20 00:09:31,24.8,125.28,69.8,100,75,13.87,light intensity shower rain,0.0,0.0
111,Kazerun,IR,2020-04-20 00:18:51,29.62,51.65,64.27,45,98,2.53,overcast clouds,0.0,0.0
112,Khatanga,RU,2020-04-20 00:18:51,71.97,102.5,24.04,95,34,5.41,scattered clouds,0.0,0.0
113,Souillac,MU,2020-04-20 00:18:52,-20.52,57.52,75.2,88,40,11.41,scattered clouds,0.0,0.0
114,Olafsvik,IS,2020-04-20 00:18:52,64.89,-23.71,44.38,91,100,21.25,light rain,1.74,0.0
115,Ribeira Grande,PT,2020-04-20 00:18:53,38.52,-28.7,56.68,63,7,12.53,clear sky,0.0,0.0
116,Liwale,TZ,2020-04-20 00:09:26,-9.77,37.93,66.96,84,80,4.65,broken clouds,0.0,0.0
117,East London,ZA,2020-04-20 00:18:53,-33.02,27.91,76.21,54,0,13.35,clear sky,0.0,0.0
118,Kavieng,PG,2020-04-20 00:16:23,-2.57,150.8,83.79,75,78,7.14,broken clouds,0.0,0.0
119,Cayenne,GF,2020-04-20 00:18:54,4.93,-52.33,78.8,94,75,2.24,mist,0.0,0.0
120,Cape Town,ZA,2020-04-20 00:17:56,-33.93,18.42,63.0,82,75,20.8,broken clouds,0.0,0.0
121,Lethem,GY,2020-04-20 00:18:54,3.38,-59.8,87.51,50,73,7.85,light rain,0.94,0.0
122,Madison,US,2020-04-20 00:15:37,34.73,-86.57,59.0,93,90,8.05,moderate rain,0.0,0.0
123,Vila Do Maio,CV,2020-04-20 00:18:55,15.13,-23.22,71.6,64,20,19.46,few clouds,0.0,0.0
124,Blyznyuky,UA,2020-04-20 00:18:55,48.86,36.56,42.08,61,100,3.78,overcast clouds,0.0,0.0
125,Neuquen,AR,2020-04-20 00:18:55,-38.95,-68.06,68.0,40,81,6.49,broken clouds,0.0,0.0
126,Kruisfontein,ZA,2020-04-20 00:18:57,-34.0,24.73,67.21,49,20,4.18,few clouds,0.0,0.0
127,Chuy,UY,2020-04-20 00:18:57,-33.7,-53.46,64.58,89,23,7.49,few clouds,0.0,0.0
128,Mitu,CO,2020-04-20 00:18:57,1.2,-70.17,73.69,90,62,1.66,light rain,1.93,0.0
129,Sycamore,US,2020-04-20 00:18:57,41.99,-88.69,51.01,57,1,13.87,clear sky,0.0,0.0
130,Victoria,HK,2020-04-20 00:18:04,22.29,114.16,78.01,83,85,5.01,overcast clouds,0.0,0.0
131,Severo-Kurilsk,RU,2020-04-20 00:18:58,50.68,156.12,30.97,91,73,9.89,broken clouds,0.0,0.0
132,Ojinaga,MX,2020-04-20 00:14:12,29.57,-104.42,86.0,7,1,10.29,clear sky,0.0,0.0
133,Ondjiva,AO,2020-04-20 00:18:58,-17.07,15.73,68.49,59,99,3.91,light rain,0.49,0.0
134,Dikson,RU,2020-04-20 00:15:02,73.51,80.55,34.48,89,90,22.77,overcast clouds,0.0,0.0
135,Caravelas,BR,2020-04-20 00:19:00,-17.71,-39.25,76.08,76,78,15.39,broken clouds,0.0,0.0
136,Esperance,AU,2020-04-20 00:18:43,-33.87,121.9,51.8,87,0,8.05,clear sky,0.0,0.0
137,Hobart,AU,2020-04-20 00:19:01,-42.88,147.33,57.99,76,75,6.93,light intensity shower rain,0.0,0.0
138,Maniitsoq,GL,2020-04-20 00:19:01,65.42,-52.9,29.53,94,100,36.17,light snow,0.0,0.97
139,Mar Del Plata,AR,2020-04-20 00:19:01,-38.0,-57.56,66.2,82,29,6.93,scattered clouds,0.0,0.0
140,Great Yarmouth,GB,2020-04-20 00:19:01,52.61,1.73,48.99,90,0,5.99,clear sky,0.0,0.0
141,Bandarbeyla,SO,2020-04-20 00:19:02,9.49,50.81,81.73,68,79,3.11,broken clouds,0.0,0.0
142,Guozhen,CN,2020-04-20 00:19:02,34.37,107.36,57.04,28,81,9.84,broken clouds,0.0,0.0
143,Yacuiba,BO,2020-04-20 00:19:02,-22.04,-63.68,67.15,41,0,3.06,clear sky,0.0,0.0
144,Flic En Flac,MU,2020-04-20 00:19:03,-20.27,57.36,75.2,88,40,11.41,scattered clouds,0.0,0.0
145,Tierranueva,MX,2020-04-20 00:19:03,21.68,-100.57,87.13,11,33,11.12,scattered clouds,0.0,0.0
146,Chokurdakh,RU,2020-04-20 00:19:03,70.63,147.92,7.12,94,86,11.52,overcast clouds,0.0,0.0
147,Nemuro,JP,2020-04-20 00:19:03,43.32,145.57,35.6,93,75,10.29,mist,0.0,0.0
148,Labuhan,ID,2020-04-20 00:16:44,-6.88,112.21,81.0,79,92,2.37,overcast clouds,0.0,0.0
149,Arraial Do Cabo,BR,2020-04-20 00:19:04,-22.97,-42.03,73.67,70,96,4.79,overcast clouds,0.0,0.0
150,Libourne,FR,2020-04-20 00:19:04,44.92,-0.25,59.0,94,94,1.86,light rain,0.12,0.0
151,Saint-Philippe,RE,2020-04-20 00:19:04,-21.36,55.77,75.2,83,75,19.46,broken clouds,0.0,0.0
152,Marzuq,YE,2020-04-20 00:14:50,14.4,46.47,72.27,47,100,2.91,light rain,1.14,0.0
153,Igrim,RU,2020-04-20 00:19:05,63.19,64.42,31.96,97,31,8.08,scattered clouds,0.0,0.0
154,Ostrovnoy,RU,2020-04-20 00:19:05,68.05,39.51,25.7,97,74,7.67,broken clouds,0.0,0.0
155,Katsuura,JP,2020-04-20 00:14:46,35.13,140.3,51.8,93,75,6.93,shower rain,0.0,0.0
156,Kodiak,US,2020-04-20 00:19:05,57.79,-152.41,48.2,76,90,10.29,overcast clouds,0.0,0.0
157,Clyde River,CA,2020-04-20 00:19:06,70.47,-68.59,1.4,64,1,5.32,clear sky,0.0,0.0
158,Kuryk,KZ,2020-04-20 00:19:06,43.2,51.65,53.2,79,40,0.94,scattered clouds,0.0,0.0
159,Syracuse,IT,2020-04-20 00:19:06,37.09,15.28,62.6,93,40,6.93,scattered clouds,0.0,0.0
160,San Carlos De Bariloche,AR,2020-04-20 00:19:06,-41.15,-71.31,50.0,57,40,26.4,scattered clouds,0.0,0.0
161,Gat,IL,2020-04-20 00:19:07,31.61,34.76,62.01,17,1,5.48,clear sky,0.0,0.0
162,Ratnagiri,IN,2020-04-20 00:19:07,16.98,73.3,83.71,70,64,4.32,broken clouds,0.0,0.0
163,Warwick,US,2020-04-20 00:15:33,41.7,-71.42,51.01,69,81,1.99,broken clouds,0.0,0.0
164,Posse,BR,2020-04-20 00:19:08,-14.09,-46.37,68.88,75,63,5.82,light rain,0.14,0.0
165,Eyl,SO,2020-04-20 00:19:08,7.98,49.82,83.3,73,70,5.86,broken clouds,0.0,0.0
166,Gouyave,GD,2020-04-20 00:19:08,12.16,-61.73,80.6,78,20,14.99,few clouds,0.0,0.0
167,Kurchum,KZ,2020-04-20 00:19:09,48.57,83.65,45.7,47,0,7.14,clear sky,0.0,0.0
168,Chapleau,CA,2020-04-20 00:19:09,47.84,-83.4,26.6,30,5,5.82,clear sky,0.0,0.0
169,Virginia Beach,US,2020-04-20 00:16:33,36.85,-75.98,63.0,77,90,4.7,overcast clouds,0.0,0.0
170,Arya,PK,2020-04-20 00:17:23,33.6,73.07,62.01,87,91,6.93,overcast clouds,0.0,0.0
171,Castro,BR,2020-04-20 00:19:10,-24.79,-50.01,57.07,70,34,5.88,scattered clouds,0.0,0.0
172,Kresttsy,RU,2020-04-20 00:19:10,58.25,32.52,30.42,98,53,3.91,broken clouds,0.0,0.0
173,Marawi,PH,2020-04-20 00:19:10,8.0,124.29,77.86,62,61,0.72,broken clouds,0.0,0.0
174,Ayan,RU,2020-04-20 00:14:47,56.45,138.17,22.55,93,100,14.2,light snow,0.0,0.42
175,Belaya Gora,RU,2020-04-20 00:19:11,68.53,146.42,10.67,91,85,9.17,overcast clouds,0.0,0.0
176,Zhigansk,RU,2020-04-20 00:19:11,66.77,123.37,17.51,93,100,8.59,overcast clouds,0.0,0.0
177,Gualaquiza,EC,2020-04-20 00:19:11,-3.4,-78.55,65.01,53,43,0.83,scattered clouds,0.0,0.0
178,Carnarvon,AU,2020-04-20 00:19:11,-24.87,113.63,71.6,83,49,11.41,scattered clouds,0.0,0.0
179,Korsakovo,RU,2020-04-20 00:19:11,53.27,37.36,37.26,76,100,1.72,overcast clouds,0.0,0.0
180,Tuatapere,NZ,2020-04-20 00:19:12,-46.13,167.68,55.99,65,35,5.01,scattered clouds,0.0,0.0
181,Carlos Chagas,BR,2020-04-20 00:14:38,-17.7,-40.77,68.95,84,73,6.4,broken clouds,0.0,0.0
182,Poddorye,RU,2020-04-20 00:19:12,57.47,31.12,30.34,97,18,4.81,few clouds,0.0,0.0
183,Isla Mujeres,MX,2020-04-20 00:19:12,21.23,-86.73,82.4,74,40,17.22,scattered clouds,0.0,0.0
184,Grand Gaube,MU,2020-04-20 00:19:13,-20.01,57.66,75.2,88,40,11.41,scattered clouds,0.0,0.0
185,Cloquet,US,2020-04-20 00:09:21,46.72,-92.46,43.0,20,1,11.41,clear sky,0.0,0.0
186,Kedrovyy,RU,2020-04-20 00:19:13,56.17,91.82,32.0,66,0,4.47,clear sky,0.0,0.0
187,Tibiri,NE,2020-04-20 00:19:13,13.56,7.05,80.31,13,9,2.48,clear sky,0.0,0.0
188,Leningradskiy,RU,2020-04-20 00:19:13,69.38,178.42,13.62,92,93,9.06,overcast clouds,0.0,0.0
189,Deniliquin,AU,2020-04-20 00:19:14,-35.53,144.97,66.0,53,100,11.99,overcast clouds,0.0,0.0
190,Fortuna,US,2020-04-20 00:19:14,40.6,-124.16,55.0,81,90,10.29,overcast clouds,0.0,0.0
191,Shenzhen,CN,2020-04-20 00:19:14,22.55,114.07,80.01,83,94,3.0,overcast clouds,0.0,0.0
192,Saint-Augustin,CA,2020-04-20 00:19:15,51.23,-58.65,28.63,98,100,15.05,light snow,0.0,0.64
193,Puerto Ayora,EC,2020-04-20 00:14:44,-0.74,-90.35,80.01,85,86,8.99,light rain,0.11,0.0
194,Hasaki,JP,2020-04-20 00:19:16,35.73,140.83,48.2,93,75,8.05,shower rain,0.0,0.0
195,Ahipara,NZ,2020-04-20 00:19:16,-35.17,173.17,63.28,90,100,5.37,moderate rain,4.04,0.0
196,Pandan,PH,2020-04-20 00:19:16,14.05,124.17,81.75,75,99,7.52,overcast clouds,0.0,0.0
197,Pisco,PE,2020-04-20 00:17:10,-13.7,-76.22,71.6,73,0,17.22,clear sky,0.0,0.0
198,Nome,US,2020-04-20 00:19:17,64.5,-165.41,39.2,80,90,4.7,overcast clouds,0.0,0.0
199,Sao Joao Da Barra,BR,2020-04-20 00:19:17,-21.64,-41.05,71.65,77,71,6.73,broken clouds,0.0,0.0
200,Najran,SA,2020-04-20 00:19:17,17.49,44.13,69.8,68,75,4.36,broken clouds,0.0,0.0
201,Klaksvik,FO,2020-04-20 00:19:17,62.23,-6.59,42.8,93,1,17.22,clear sky,0.0,0.0
202,Batemans Bay,AU,2020-04-20 00:19:18,-35.72,150.18,63.0,56,100,1.01,overcast clouds,0.0,0.0
203,Nouakchott,MR,2020-04-20 00:19:18,18.09,-15.98,68.0,88,0,13.87,clear sky,0.0,0.0
204,General Pico,AR,2020-04-20 00:19:18,-35.66,-63.76,67.1,52,1,4.68,clear sky,0.0,0.0
205,Trincomalee,LK,2020-04-20 00:19:19,8.57,81.23,81.09,80,19,7.27,few clouds,0.0,0.0
206,Kinshasa,CD,2020-04-20 00:19:19,-4.32,15.32,78.8,78,40,6.93,scattered clouds,0.0,0.0
207,Kaoma,ZM,2020-04-20 00:19:19,-14.78,24.8,59.95,65,7,4.21,clear sky,0.0,0.0
208,Galesong,ID,2020-04-20 00:16:18,-5.32,119.37,77.0,94,20,3.36,few clouds,0.0,0.0
209,Cidreira,BR,2020-04-20 00:19:20,-30.18,-50.21,68.07,85,0,16.93,clear sky,0.0,0.0
210,Kholm,RU,2020-04-20 00:19:20,59.27,32.85,30.24,98,54,3.83,broken clouds,0.0,0.0
211,Ponta Do Sol,PT,2020-04-20 00:19:20,32.67,-17.1,57.99,68,13,5.99,few clouds,0.0,0.0
212,Porrentruy,CH,2020-04-20 00:19:20,47.42,7.08,60.8,76,100,8.05,overcast clouds,0.0,0.0
213,Pucallpa,PE,2020-04-20 00:16:06,-8.38,-74.55,75.6,59,0,1.48,clear sky,0.0,0.0
214,Lompoc,US,2020-04-20 00:15:33,34.64,-120.46,62.01,67,40,13.87,scattered clouds,0.0,0.0
215,Terrace Bay,CA,2020-04-20 00:19:22,48.78,-87.1,27.39,92,61,11.99,light snow,0.0,0.2
216,Narva-Joesuu,EE,2020-04-20 00:19:22,59.46,28.04,36.73,83,69,5.48,broken clouds,0.0,0.0
217,Bosaso,SO,2020-04-20 00:19:22,11.28,49.18,83.1,67,94,1.7,overcast clouds,0.0,0.0
218,Codrington,AU,2020-04-20 00:19:23,-38.27,141.97,60.48,60,62,23.73,light rain,0.18,0.0
219,Cabo San Lucas,MX,2020-04-20 00:19:23,22.89,-109.91,77.0,47,5,9.17,clear sky,0.0,0.0
220,Oktyabrskiy,RU,2020-04-20 00:19:24,54.48,53.47,37.74,73,88,1.63,overcast clouds,0.0,0.0
221,Tahta,EG,2020-04-20 00:19:24,26.77,31.5,73.4,40,0,6.93,clear sky,0.0,0.0
222,Ladario,BR,2020-04-20 00:19:24,-19.0,-57.6,76.78,70,57,2.08,broken clouds,0.0,0.0
223,Biak,ID,2020-04-20 00:19:25,-0.91,122.88,82.11,69,3,2.86,light rain,0.57,0.0
224,Xining,CN,2020-04-20 00:19:25,36.62,101.77,39.6,27,100,3.62,overcast clouds,0.0,0.0
225,Kaeo,NZ,2020-04-20 00:18:44,-35.1,173.78,62.01,94,100,1.01,moderate rain,6.52,0.0
226,Yellowknife,CA,2020-04-20 00:19:25,62.46,-114.35,26.6,58,20,21.92,few clouds,0.0,0.0
227,Odweyne,SO,2020-04-20 00:19:27,9.41,45.06,74.93,50,100,1.07,light rain,2.52,0.0
228,Shahabad,IN,2020-04-20 00:19:27,27.65,79.95,76.21,33,24,5.7,few clouds,0.0,0.0
229,Bilma,NE,2020-04-20 00:19:28,18.69,12.92,84.18,12,42,5.23,scattered clouds,0.0,0.0
230,Pangnirtung,CA,2020-04-20 00:17:04,66.15,-65.71,-1.23,85,36,4.12,scattered clouds,0.0,0.0
231,Los Llanos De Aridane,ES,2020-04-20 00:19:28,28.66,-17.92,64.4,68,41,2.24,scattered clouds,0.0,0.0
232,Yurino,RU,2020-04-20 00:19:28,56.29,46.3,37.4,76,75,6.71,broken clouds,0.0,0.0
233,Maunabo,PR,2020-04-20 00:19:29,18.01,-65.9,79.0,100,16,9.26,few clouds,0.0,0.0
234,Nanchang,CN,2020-04-20 00:19:29,28.68,115.88,62.92,73,13,3.67,few clouds,0.0,0.0
235,Provideniya,RU,2020-04-20 00:19:16,64.38,-173.3,22.44,95,100,14.94,light snow,0.0,0.66
236,Hambantota,LK,2020-04-20 00:19:29,6.12,81.12,81.68,82,76,9.46,broken clouds,0.0,0.0
237,Luderitz,NA,2020-04-20 00:19:30,-26.65,15.16,60.8,87,0,8.05,clear sky,0.0,0.0
238,Vanimo,PG,2020-04-20 00:19:30,-2.67,141.3,82.74,79,100,1.43,moderate rain,6.34,0.0
239,Bushenyi,UG,2020-04-20 00:19:30,-0.59,30.21,60.76,60,99,0.56,overcast clouds,0.0,0.0
240,Carahue,CL,2020-04-20 00:19:30,-38.7,-73.17,53.6,93,100,4.7,overcast clouds,0.0,0.0
241,Krasnoselkup,RU,2020-04-20 00:19:31,65.7,82.47,37.76,93,100,21.5,moderate rain,3.92,0.0
242,Ruteng,ID,2020-04-20 00:19:31,-8.61,120.47,70.39,60,47,2.08,scattered clouds,0.0,0.0
243,Thompson,CA,2020-04-20 00:18:19,55.74,-97.86,23.0,85,90,10.29,light snow,0.0,0.0
244,Iqaluit,CA,2020-04-20 00:19:31,63.75,-68.51,-2.0,70,20,5.82,few clouds,0.0,0.0
245,Avera,US,2020-04-20 00:19:32,33.19,-82.53,57.2,94,90,4.7,light rain,0.0,0.0
246,Darlowo,PL,2020-04-20 00:19:32,54.42,16.41,44.01,71,0,4.09,clear sky,0.0,0.0
247,Lacombe,CA,2020-04-20 00:19:33,52.47,-113.74,55.4,32,40,3.36,scattered clouds,0.0,0.0
248,Srednekolymsk,RU,2020-04-20 00:19:33,67.45,153.68,9.52,93,86,12.19,light snow,0.0,0.19
249,Bata,GQ,2020-04-20 00:19:33,1.86,9.77,77.0,100,40,5.82,scattered clouds,0.0,0.0
250,Port Augusta,AU,2020-04-20 00:19:33,-32.5,137.77,68.0,68,40,8.05,scattered clouds,0.0,0.0
251,Natal,BR,2020-04-20 00:19:34,-5.79,-35.21,78.8,88,20,3.36,few clouds,0.0,0.0
252,Mandalgovi,MN,2020-04-20 00:19:34,45.76,106.27,23.63,51,38,14.63,scattered clouds,0.0,0.0
253,Saint George,US,2020-04-20 00:15:42,37.1,-113.58,71.6,26,20,11.41,few clouds,0.0,0.0
254,Farah,AF,2020-04-20 00:19:34,32.5,62.5,60.6,41,0,1.54,clear sky,0.0,0.0
255,Grindavik,IS,2020-04-20 00:19:35,63.84,-22.43,46.4,100,90,29.97,light intensity drizzle rain,0.0,0.0
256,Arti,RU,2020-04-20 00:19:35,56.42,58.53,34.09,81,18,3.15,few clouds,0.0,0.0
257,Obera,AR,2020-04-20 00:19:35,-27.49,-55.12,63.61,59,0,2.08,clear sky,0.0,0.0
258,Katghora,IN,2020-04-20 00:19:35,22.5,82.55,78.17,31,51,2.44,broken clouds,0.0,0.0
259,Kisangani,CD,2020-04-20 00:19:35,0.52,25.2,71.02,80,99,1.19,overcast clouds,0.0,0.0
260,Olinda,BR,2020-04-20 00:19:36,-8.01,-34.86,80.6,83,40,2.24,scattered clouds,0.0,0.0
261,Santiago De Chuco,PE,2020-04-20 00:19:36,-8.15,-78.18,50.94,37,79,2.3,light rain,0.78,0.0
262,Ndele,CF,2020-04-20 00:19:36,8.41,20.65,80.29,48,89,6.71,overcast clouds,0.0,0.0
263,Sumenep,ID,2020-04-20 00:19:36,-7.02,113.87,82.38,74,100,0.49,overcast clouds,0.0,0.0
264,Laibin,CN,2020-04-20 00:19:37,23.7,109.27,74.53,81,62,5.93,broken clouds,0.0,0.0
265,Lazaro Cardenas,MX,2020-04-20 00:19:37,17.96,-102.2,80.53,71,35,6.82,scattered clouds,0.0,0.0
266,Shimoda,JP,2020-04-20 00:19:37,34.67,138.95,51.8,93,75,14.99,light intensity shower rain,0.0,0.0
267,Ust-Ilimsk,RU,2020-04-20 00:17:26,58.0,102.66,25.68,86,0,2.89,clear sky,0.0,0.0
268,Bintulu,MY,2020-04-20 00:19:37,3.17,113.03,80.6,94,75,2.91,broken clouds,0.0,0.0
269,Brigantine,US,2020-04-20 00:19:38,39.41,-74.36,55.4,62,1,8.05,clear sky,0.0,0.0
270,Kushima,JP,2020-04-20 00:19:38,31.46,131.23,66.2,68,75,11.41,broken clouds,0.0,0.0
271,Diamantino,BR,2020-04-20 00:19:38,-14.41,-56.45,75.29,76,15,1.72,few clouds,0.0,0.0
272,Oeiras,BR,2020-04-20 00:19:39,-7.03,-42.13,76.05,82,100,3.76,light rain,1.55,0.0
273,Melo,UY,2020-04-20 00:19:39,-32.37,-54.18,62.94,66,0,3.29,clear sky,0.0,0.0
274,Zabid,YE,2020-04-20 00:19:39,14.2,43.32,86.45,60,88,8.12,overcast clouds,0.0,0.0
275,Kudahuvadhoo,MV,2020-04-20 00:19:39,2.67,72.89,85.15,72,71,9.44,broken clouds,0.0,0.0
276,Matamoros,MX,2020-04-20 00:15:56,25.53,-103.25,95.0,5,75,4.7,broken clouds,0.0,0.0
277,Cockburn Town,TC,2020-04-20 00:17:25,21.46,-71.14,79.18,82,7,16.49,clear sky,0.0,0.0
278,Darab,IR,2020-04-20 00:19:40,28.75,54.54,64.99,37,100,3.33,overcast clouds,0.0,0.0
279,Airai,TL,2020-04-20 00:19:41,-8.93,125.41,67.21,52,0,2.8,clear sky,0.0,0.0
280,Nyurba,RU,2020-04-20 00:19:41,63.28,118.33,20.48,93,87,4.81,overcast clouds,0.0,0.0
281,Sawakin,SD,2020-04-20 00:19:42,19.11,37.33,77.45,46,67,3.65,broken clouds,0.0,0.0
282,Bela,IN,2020-04-20 00:19:42,25.93,81.98,79.54,24,56,3.33,broken clouds,0.0,0.0
283,Mattawa,US,2020-04-20 00:19:42,46.74,-119.9,72.0,33,1,3.36,clear sky,0.0,0.0
284,Awjilah,LY,2020-04-20 00:19:43,29.11,21.29,71.08,24,32,8.59,scattered clouds,0.0,0.0
285,Gornopravdinsk,RU,2020-04-20 00:19:43,60.05,69.9,34.54,88,0,4.18,clear sky,0.0,0.0
286,Sao Jose Da Coroa Grande,BR,2020-04-20 00:19:43,-8.9,-35.15,80.71,80,31,7.25,light rain,0.24,0.0
287,Folldal,NO,2020-04-20 00:19:43,62.13,10.0,29.8,73,21,2.86,few clouds,0.0,0.0
288,Galich,RU,2020-04-20 00:19:44,58.38,42.35,31.89,92,26,1.28,scattered clouds,0.0,0.0
289,Monterey,US,2020-04-20 00:19:44,36.25,-121.25,64.99,60,90,5.01,overcast clouds,0.0,0.0
290,Sola,VU,2020-04-20 00:19:45,-13.88,167.55,89.6,75,40,5.82,scattered clouds,0.0,0.0
291,Puri,IN,2020-04-20 00:19:45,19.8,85.85,79.29,92,59,7.81,broken clouds,0.0,0.0
292,Rorvik,NO,2020-04-20 00:19:45,64.86,11.24,41.54,82,98,5.32,overcast clouds,0.0,0.0
293,Papagaios,BR,2020-04-20 00:19:46,-19.45,-44.75,66.27,75,85,7.76,overcast clouds,0.0,0.0
294,Wembley,AU,2020-04-20 00:19:46,-31.93,115.8,62.01,87,40,4.7,scattered clouds,0.0,0.0
295,Bengkulu,ID,2020-04-20 00:19:46,-3.8,102.27,78.13,83,84,4.12,broken clouds,0.0,0.0
296,Cabedelo,BR,2020-04-20 00:19:46,-6.98,-34.83,78.8,88,11,3.36,light rain,2.52,0.0
297,Dhidhdhoo,MV,2020-04-20 00:14:48,6.88,73.1,86.45,69,33,8.08,scattered clouds,0.0,0.0
298,Zambezi,ZM,2020-04-20 00:19:47,-13.54,23.1,63.79,63,54,5.46,broken clouds,0.0,0.0
299,Gualeguaychu,AR,2020-04-20 00:19:47,-33.01,-58.52,72.0,53,0,1.99,clear sky,0.0,0.0
300,Chicama,PE,2020-04-20 00:19:47,-7.84,-79.15,74.73,68,16,6.87,few clouds,0.0,0.0
301,Uvalde,US,2020-04-20 00:19:48,29.37,-99.77,89.6,13,1,12.75,clear sky,0.0,0.0
302,Sur,OM,2020-04-20 00:19:48,22.57,59.53,83.8,46,1,8.32,clear sky,0.0,0.0
303,Ejido,VE,2020-04-20 00:19:48,8.55,-71.24,70.77,52,96,1.45,light rain,2.92,0.0
304,Enshi,CN,2020-04-20 00:17:06,30.3,109.48,61.57,72,100,2.51,moderate rain,8.49,0.0
305,Alice Springs,AU,2020-04-20 00:19:49,-23.7,133.88,87.8,23,1,12.75,clear sky,0.0,0.0
306,Vostok,RU,2020-04-20 00:19:49,46.49,135.88,43.72,45,100,7.34,overcast clouds,0.0,0.0
307,Kapoeta,SS,2020-04-20 00:19:49,4.77,33.59,75.02,45,100,4.81,overcast clouds,0.0,0.0
308,Ambon,ID,2020-04-20 00:19:50,-3.7,128.18,84.2,74,40,2.24,scattered clouds,0.0,0.0
309,Abu Samrah,SY,2020-04-20 00:19:50,35.3,37.18,66.85,40,54,2.98,broken clouds,0.0,0.0
310,Tautira,PF,2020-04-20 00:19:50,-17.73,-149.15,87.8,62,99,6.93,light rain,1.13,0.0
311,Tukrah,LY,2020-04-20 00:19:50,32.53,20.58,63.32,36,66,7.34,broken clouds,0.0,0.0
312,Adwa,ET,2020-04-20 00:19:51,14.16,38.9,68.27,15,96,2.89,overcast clouds,0.0,0.0
313,Ginir,ET,2020-04-20 00:19:51,7.13,40.7,59.31,56,98,4.76,light rain,0.8,0.0
314,Qinzhou,CN,2020-04-20 00:19:51,21.95,108.62,76.82,88,69,6.04,broken clouds,0.0,0.0
315,Agirish,RU,2020-04-20 00:19:51,61.92,63.02,31.6,91,41,6.22,scattered clouds,0.0,0.0
316,Norfolk,US,2020-04-20 00:17:52,42.17,-71.25,53.01,60,71,1.99,broken clouds,0.0,0.0
317,Cortez,US,2020-04-20 00:19:52,37.35,-108.59,62.6,23,75,11.41,broken clouds,0.0,0.0
318,Surt,LY,2020-04-20 00:19:52,31.21,16.59,69.75,35,96,21.07,overcast clouds,0.0,0.0
319,Sabang,ID,2020-04-20 00:17:04,5.89,95.32,83.1,75,36,8.34,scattered clouds,0.0,0.0
320,Isangel,VU,2020-04-20 00:19:52,-19.55,169.27,82.4,83,90,15.57,overcast clouds,0.0,0.0
321,Ukiah,US,2020-04-20 00:17:17,39.15,-123.21,69.8,40,1,10.29,clear sky,0.0,0.0
322,San Francisco Del Mar,MX,2020-04-20 00:19:53,16.23,-94.65,84.7,68,23,10.71,few clouds,0.0,0.0
323,Tomohon,ID,2020-04-20 00:19:53,1.33,124.84,80.6,83,20,2.24,few clouds,0.0,0.0
324,Novoagansk,RU,2020-04-20 00:19:53,61.94,76.66,39.18,81,95,5.01,overcast clouds,0.0,0.0
325,Ovsyanka,RU,2020-04-20 00:19:54,55.96,92.55,33.8,37,0,4.47,clear sky,0.0,0.0
326,Kargasok,RU,2020-04-20 00:19:54,59.06,80.86,43.61,79,100,7.52,light rain,0.15,0.0
327,Touros,BR,2020-04-20 00:19:54,-5.2,-35.46,77.0,94,20,2.24,few clouds,0.0,0.0
328,Jalu,LY,2020-04-20 00:19:25,29.03,21.55,71.15,24,38,8.03,scattered clouds,0.0,0.0
329,Yurty,RU,2020-04-20 00:19:54,56.05,97.63,31.28,74,0,9.64,clear sky,0.0,0.0
330,Navrongo,GH,2020-04-20 00:19:55,10.9,-1.09,87.21,46,93,2.35,light rain,0.87,0.0
331,Kavaratti,IN,2020-04-20 00:19:51,10.57,72.64,85.08,69,42,5.19,scattered clouds,0.0,0.0
332,Tigil,RU,2020-04-20 00:19:55,57.8,158.67,18.91,92,96,5.01,overcast clouds,0.0,0.0
333,Ust-Nera,RU,2020-04-20 00:19:55,64.57,143.2,6.84,77,91,1.95,overcast clouds,0.0,0.0
334,Dalbandin,PK,2020-04-20 00:19:56,28.89,64.41,68.88,37,84,1.61,broken clouds,0.0,0.0
335,Saint Augustine,US,2020-04-20 00:17:37,29.89,-81.31,82.4,54,40,9.17,scattered clouds,0.0,0.0
336,Merauke,ID,2020-04-20 00:16:55,-8.47,140.33,85.15,73,50,10.16,scattered clouds,0.0,0.0
337,Milkovo,RU,2020-04-20 00:19:57,54.72,158.62,26.83,79,33,5.39,scattered clouds,0.0,0.0
338,San Andres,CO,2020-04-20 00:19:57,12.58,-81.7,82.4,74,20,6.93,few clouds,0.0,0.0
339,Pervomayskoye,RU,2020-04-20 00:19:57,43.92,46.71,48.83,72,28,1.54,scattered clouds,0.0,0.0
340,Zabaykalsk,RU,2020-04-20 00:19:58,49.63,117.32,22.62,74,63,21.3,broken clouds,0.0,0.0
341,Bystrice Pod Hostynem,CZ,2020-04-20 00:19:58,49.4,17.67,39.0,61,0,1.99,clear sky,0.0,0.0
342,Samfya,ZM,2020-04-20 00:19:58,-11.36,29.56,61.23,67,42,5.19,scattered clouds,0.0,0.0
343,Jiangyou,CN,2020-04-20 00:19:58,31.77,104.72,62.65,61,99,1.83,overcast clouds,0.0,0.0
344,Yatou,CN,2020-04-20 00:19:59,37.15,122.38,52.29,73,56,20.96,light rain,0.12,0.0
345,Mogadishu,SO,2020-04-20 00:15:24,2.04,45.34,83.17,74,88,8.08,light rain,1.57,0.0
346,Opuwo,NA,2020-04-20 00:19:59,-18.06,13.84,69.42,54,57,7.16,light rain,0.69,0.0
347,Aktau,KZ,2020-04-20 00:19:59,43.65,51.2,44.6,100,90,2.24,fog,0.0,0.0
348,Binzhou,CN,2020-04-20 00:20:00,37.37,118.02,59.0,36,12,3.0,few clouds,0.0,0.0
349,Talnakh,RU,2020-04-20 00:20:00,69.49,88.4,37.4,74,100,26.84,overcast clouds,0.0,0.0
350,Bonavista,CA,2020-04-20 00:20:00,48.65,-53.11,32.4,96,100,39.48,moderate rain,5.06,0.0
351,Nisia Floresta,BR,2020-04-20 00:20:00,-6.09,-35.21,78.8,88,20,3.36,few clouds,0.0,0.0
352,Joshimath,IN,2020-04-20 00:20:01,30.57,79.57,41.97,25,89,6.4,overcast clouds,0.0,0.0
353,Bubaque,GW,2020-04-20 00:20:01,11.28,-15.83,77.02,74,75,13.06,broken clouds,0.0,0.0
354,Massaguet,TD,2020-04-20 00:20:01,12.48,15.44,86.0,11,82,6.93,broken clouds,0.0,0.0
355,Ubatuba,BR,2020-04-20 00:19:49,-23.43,-45.07,71.67,72,31,4.74,scattered clouds,0.0,0.0
356,Laguna,US,2020-04-20 00:20:02,38.42,-121.42,70.0,45,1,8.05,clear sky,0.0,0.0
357,Poum,NC,2020-04-20 00:20:02,-20.23,164.02,81.18,75,99,7.11,moderate rain,3.79,0.0
358,Brae,GB,2020-04-20 00:20:02,60.4,-1.35,42.8,80,0,2.24,clear sky,0.0,0.0
359,Geraldton,AU,2020-04-20 00:20:03,-28.77,114.6,59.0,82,0,12.75,clear sky,0.0,0.0
360,Yaring,TH,2020-04-20 00:20:03,6.87,101.37,82.04,82,40,10.13,scattered clouds,0.0,0.0
361,Santa Maria,BR,2020-04-20 00:18:59,-29.68,-53.81,68.0,64,0,4.7,clear sky,0.0,0.0
362,Maxixe,MZ,2020-04-20 00:20:03,-23.86,35.35,72.63,84,13,9.62,light rain,0.7,0.0
363,Meulaboh,ID,2020-04-20 00:20:04,4.14,96.13,78.84,83,51,3.85,broken clouds,0.0,0.0
364,Norman Wells,CA,2020-04-20 00:20:04,65.28,-126.83,30.2,58,90,2.24,overcast clouds,0.0,0.0
365,Torbay,CA,2020-04-20 00:20:04,47.67,-52.73,36.0,92,90,28.86,moderate rain,0.0,0.0
366,Moyale,KE,2020-04-20 00:20:05,3.52,39.06,67.66,66,100,4.41,light rain,0.26,0.0
367,Lappeenranta,FI,2020-04-20 00:20:05,61.06,28.19,39.2,64,83,2.24,broken clouds,0.0,0.0
368,Conceicao Do Araguaia,BR,2020-04-20 00:20:05,-8.26,-49.26,80.6,78,53,3.36,light rain,0.66,0.0
369,Port Macquarie,AU,2020-04-20 00:18:51,-31.43,152.92,68.0,79,40,3.36,scattered clouds,0.0,0.0
370,Kommunisticheskiy,RU,2020-04-20 00:20:06,61.68,64.48,31.48,94,12,6.31,few clouds,0.0,0.0
371,Sinop,TR,2020-04-20 00:20:07,41.77,34.87,51.76,55,99,2.57,overcast clouds,0.0,0.0
372,Manokwari,ID,2020-04-20 00:20:07,-0.87,134.08,84.11,68,32,1.68,scattered clouds,0.0,0.0
373,Jurmala,LV,2020-04-20 00:20:07,56.97,23.77,37.4,86,5,4.7,clear sky,0.0,0.0
374,Yar-Sale,RU,2020-04-20 00:20:08,66.83,70.83,34.12,98,100,8.01,light rain,0.32,0.0
375,Coahuayana,MX,2020-04-20 00:20:08,18.73,-103.68,82.4,58,5,11.41,clear sky,0.0,0.0
376,Quepos,CR,2020-04-20 00:20:08,9.42,-84.17,69.8,88,75,3.36,moderate rain,0.0,0.0
377,Lauria,IT,2020-04-20 00:20:09,40.05,15.84,63.0,70,100,3.06,overcast clouds,0.0,0.0
378,Shakawe,BW,2020-04-20 00:20:09,-18.37,21.85,66.25,41,27,5.61,scattered clouds,0.0,0.0
379,Komsomolskiy,UZ,2020-04-20 00:20:09,40.43,71.72,55.4,54,0,6.93,clear sky,0.0,0.0
380,Kasongo-Lunda,CD,2020-04-20 00:20:09,-6.47,16.82,70.9,74,89,0.56,overcast clouds,0.0,0.0
381,Treinta Y Tres,UY,2020-04-20 00:20:10,-33.23,-54.38,61.66,75,14,4.54,few clouds,0.0,0.0
382,Narsaq,GL,2020-04-20 00:20:10,60.92,-46.05,28.4,42,0,8.05,clear sky,0.0,0.0
383,Mount Isa,AU,2020-04-20 00:20:10,-20.73,139.5,82.4,20,75,6.93,broken clouds,0.0,0.0
384,Abonnema,NG,2020-04-20 00:20:10,4.71,6.79,77.04,85,99,2.06,overcast clouds,0.0,0.0
385,Boa Vista,BR,2020-04-20 00:18:55,2.82,-60.67,87.8,55,75,8.05,broken clouds,0.0,0.0
386,Campos Do Jordao,BR,2020-04-20 00:20:11,-22.74,-45.59,50.77,71,49,2.68,scattered clouds,0.0,0.0
387,Seydi,TM,2020-04-20 00:20:11,39.48,62.91,67.86,24,0,5.61,clear sky,0.0,0.0
388,Sao Felix Do Xingu,BR,2020-04-20 00:20:11,-6.64,-51.99,73.87,88,99,0.87,light rain,2.51,0.0
389,Port Elizabeth,ZA,2020-04-20 00:15:44,-33.92,25.57,73.4,40,29,13.87,scattered clouds,0.0,0.0
390,Newport,GB,2020-04-20 00:18:17,51.59,-3.0,48.0,79,37,1.01,scattered clouds,0.0,0.0
391,Koslan,RU,2020-04-20 00:20:12,63.46,48.9,31.17,96,100,3.2,overcast clouds,0.0,0.0
392,Huambo,AO,2020-04-20 00:20:12,-12.78,15.74,59.25,59,98,2.82,light rain,0.59,0.0
393,Palasbari,IN,2020-04-20 00:20:13,26.14,91.55,69.53,83,2,4.7,light rain,0.3,0.0
394,Pierre,US,2020-04-20 00:20:01,44.37,-100.35,48.0,70,40,8.05,scattered clouds,0.0,0.0
395,Khorramshahr,IR,2020-04-20 00:20:13,30.44,48.17,71.6,60,83,4.7,broken clouds,0.0,0.0
396,Kirakira,SB,2020-04-20 00:20:13,-10.45,161.92,84.27,73,96,3.29,light rain,1.03,0.0
397,Bayevo,RU,2020-04-20 00:20:14,53.28,80.77,48.94,50,50,2.13,scattered clouds,0.0,0.0
398,Thinadhoo,MV,2020-04-20 00:20:14,0.53,72.93,84.6,75,90,10.54,light rain,0.12,0.0
399,Karratha,AU,2020-04-20 00:20:15,-20.74,116.85,83.82,61,97,7.52,overcast clouds,0.0,0.0
400,Gao,ML,2020-04-20 00:20:16,16.64,1.64,88.36,24,36,8.77,scattered clouds,0.0,0.0
401,Okha,RU,2020-04-20 00:20:16,53.57,142.95,30.69,99,100,10.78,light snow,0.0,1.32
402,Fukue,JP,2020-04-20 00:20:16,32.69,128.84,59.0,82,75,9.17,broken clouds,0.0,0.0
403,Suzun,RU,2020-04-20 00:20:17,53.78,82.31,45.5,62,71,0.85,broken clouds,0.0,0.0
404,Ballina,AU,2020-04-20 00:20:17,-28.87,153.57,73.4,56,0,8.05,clear sky,0.0,0.0
405,Balabac,PH,2020-04-20 00:20:17,7.99,117.06,83.62,76,97,10.4,light rain,2.25,0.0
406,Sambava,MG,2020-04-20 00:20:17,-14.27,50.17,73.58,88,50,7.9,light rain,0.64,0.0
407,Kaupanger,NO,2020-04-20 00:20:18,61.18,7.24,36.93,74,25,1.7,scattered clouds,0.0,0.0
408,Wakkanai,JP,2020-04-20 00:20:18,45.41,141.67,48.2,49,100,9.17,overcast clouds,0.0,0.0
409,Douglas,US,2020-04-20 00:18:27,41.3,-96.17,60.01,33,1,4.7,clear sky,0.0,0.0
410,Balkhash,KZ,2020-04-20 00:20:18,46.84,74.98,55.45,36,0,9.44,clear sky,0.0,0.0
411,Santa Maria Del Oro,MX,2020-04-20 00:20:19,25.93,-105.37,81.46,8,26,22.91,scattered clouds,0.0,0.0
412,Filadelfia,US,2020-04-20 00:18:37,39.95,-75.16,60.01,44,75,11.41,broken clouds,0.0,0.0
413,Lianran,CN,2020-04-20 00:20:15,24.92,102.48,59.0,51,0,13.42,clear sky,0.0,0.0
414,San Cristobal,VE,2020-04-20 00:20:19,7.77,-72.22,69.76,63,90,0.92,moderate rain,4.67,0.0
415,Letlhakane,BW,2020-04-20 00:20:20,-21.42,25.58,63.25,44,0,8.21,clear sky,0.0,0.0
416,Bereda,ES,2020-04-20 00:20:20,43.27,-7.54,50.0,100,56,1.01,broken clouds,0.0,0.0
417,Oxford,GB,2020-04-20 00:17:33,51.75,-1.26,42.8,81,2,9.17,clear sky,0.0,0.0
418,Cozumel,MX,2020-04-20 00:20:20,20.51,-86.95,84.2,70,40,8.05,scattered clouds,0.0,0.0
419,Pacific Grove,US,2020-04-20 00:18:20,36.62,-121.92,62.6,55,1,11.41,clear sky,0.0,0.0
420,Derzhavinsk,KZ,2020-04-20 00:20:22,51.1,66.32,53.47,66,99,6.87,overcast clouds,0.0,0.0
421,Codo,BR,2020-04-20 00:20:22,-4.46,-43.89,75.34,93,100,1.81,light rain,1.15,0.0
422,Ngunguru,NZ,2020-04-20 00:20:23,-35.62,174.5,62.01,98,99,1.99,moderate rain,3.12,0.0
423,Vysokogornyy,RU,2020-04-20 00:20:23,50.12,139.15,49.75,46,100,1.21,overcast clouds,0.0,0.0
424,Banjar,ID,2020-04-20 00:20:23,-8.19,114.97,82.4,94,20,1.12,few clouds,0.0,0.0
425,Chernolesskoye,RU,2020-04-20 00:20:23,44.72,43.71,51.87,81,78,4.76,broken clouds,0.0,0.0
426,Jinka,ET,2020-04-20 00:20:24,5.65,36.65,60.35,65,74,2.75,light rain,0.44,0.0
427,Aktash,RU,2020-04-20 00:20:24,50.3,87.73,28.06,41,0,0.98,clear sky,0.0,0.0
428,Mancheral,IN,2020-04-20 00:20:24,18.87,79.43,80.31,62,1,3.89,clear sky,0.0,0.0
429,Gazojak,TM,2020-04-20 00:20:24,41.19,61.4,65.84,25,2,2.66,clear sky,0.0,0.0
430,Lisakovsk,KZ,2020-04-20 00:20:25,52.54,62.49,44.8,68,100,7.9,overcast clouds,0.0,0.0
431,Broome,US,2020-04-20 00:20:25,42.25,-75.83,53.01,70,90,17.22,overcast clouds,0.0,0.0
432,Cobija,BO,2020-04-20 00:20:25,-11.03,-68.77,72.66,61,72,1.74,broken clouds,0.0,0.0
433,Porto Velho,BR,2020-04-20 00:20:25,-8.76,-63.9,77.0,94,20,2.13,few clouds,0.0,0.0
434,Humberto De Campos,BR,2020-04-20 00:20:26,-2.6,-43.46,78.39,87,93,4.25,light rain,0.35,0.0
435,Coquimbo,CL,2020-04-20 00:20:26,-29.95,-71.34,60.8,87,90,2.04,overcast clouds,0.0,0.0
436,Sao Lourenco Do Sul,BR,2020-04-20 00:20:26,-31.37,-51.98,64.99,89,1,1.01,clear sky,0.0,0.0
437,Vitoria Da Conquista,BR,2020-04-20 00:20:28,-14.87,-40.84,65.16,75,98,9.19,light rain,0.18,0.0
438,Walvis Bay,NA,2020-04-20 00:20:28,-22.96,14.51,60.8,82,15,3.36,few clouds,0.0,0.0
439,Paracatu,BR,2020-04-20 00:20:29,-17.22,-46.87,68.07,77,41,3.06,light rain,1.59,0.0
440,Kahului,US,2020-04-20 00:16:40,20.89,-156.47,82.4,51,40,9.17,scattered clouds,0.0,0.0
441,Falam,MM,2020-04-20 00:20:31,22.92,93.68,59.72,42,49,1.01,scattered clouds,0.0,0.0
442,Ketchikan,US,2020-04-20 00:20:27,55.34,-131.65,51.8,81,75,14.99,broken clouds,0.0,0.0
443,Eureka,US,2020-04-20 00:17:08,40.8,-124.16,55.99,71,7,4.0,clear sky,0.0,0.0
444,Oussouye,SN,2020-04-20 00:20:31,12.48,-16.55,77.0,61,72,4.7,broken clouds,0.0,0.0
445,Jurm,AF,2020-04-20 00:20:31,36.86,70.83,49.35,31,73,1.21,broken clouds,0.0,0.0
446,Christchurch,NZ,2020-04-20 00:17:14,-43.53,172.63,66.0,34,30,11.41,scattered clouds,0.0,0.0
447,Kalabo,ZM,2020-04-20 00:20:32,-14.97,22.68,65.62,60,37,4.74,scattered clouds,0.0,0.0
448,Wanning,CN,2020-04-20 00:20:32,18.8,110.4,79.56,84,92,10.27,overcast clouds,0.0,0.0
449,Medicine Hat,CA,2020-04-20 00:20:32,50.05,-110.67,62.6,18,40,16.11,scattered clouds,0.0,0.0
450,Vestmanna,FO,2020-04-20 00:20:32,62.16,-7.17,42.8,93,6,17.22,clear sky,0.0,0.0
451,Dharchula,IN,2020-04-20 00:20:33,29.85,80.53,52.99,30,91,8.88,overcast clouds,0.0,0.0
452,Sao Bento,BR,2020-04-20 00:20:34,-6.28,-37.75,71.87,84,33,8.99,moderate rain,3.91,0.0
453,Narasannapeta,IN,2020-04-20 00:20:35,18.42,84.05,78.62,79,47,6.06,scattered clouds,0.0,0.0
454,Cabadiangan,PH,2020-04-20 00:20:36,9.75,122.47,84.31,71,47,12.64,light rain,0.15,0.0
455,Alta Floresta,BR,2020-04-20 00:20:36,-9.88,-56.09,72.99,86,47,0.89,moderate rain,3.01,0.0
456,Saldanha,ZA,2020-04-20 00:20:36,-33.01,17.94,59.0,82,31,11.41,scattered clouds,0.0,0.0
457,Kampong Chhnang,KH,2020-04-20 00:20:36,12.17,104.55,81.36,79,53,8.57,broken clouds,0.0,0.0
458,Thaba-Tseka,LS,2020-04-20 00:20:37,-29.52,28.61,45.3,38,0,2.51,clear sky,0.0,0.0
459,Tjome,NO,2020-04-20 00:20:37,59.11,10.39,48.0,67,0,5.82,clear sky,0.0,0.0
460,Alexandria,EG,2020-04-20 00:20:24,31.22,29.96,62.6,77,2,4.7,clear sky,0.0,0.0
461,Muscat,OM,2020-04-20 00:20:37,23.61,58.59,82.4,88,31,4.7,scattered clouds,0.0,0.0
462,Siverek,TR,2020-04-20 00:20:38,37.76,39.32,57.2,62,30,8.05,scattered clouds,0.0,0.0
463,Kasongo,CD,2020-04-20 00:16:03,-4.45,26.67,67.3,83,49,0.47,scattered clouds,0.0,0.0
464,Oltu,TR,2020-04-20 00:20:39,40.55,42.0,47.75,45,14,2.39,few clouds,0.0,0.0
465,Asyut,EG,2020-04-20 00:20:39,27.18,31.18,64.4,48,0,12.75,clear sky,0.0,0.0
466,Tsabong,BW,2020-04-20 00:20:39,-26.02,22.4,75.24,23,38,10.22,scattered clouds,0.0,0.0
467,Ouallam,NE,2020-04-20 00:20:39,14.32,2.09,89.62,32,37,12.39,scattered clouds,0.0,0.0
468,Gomel,BY,2020-04-20 00:20:40,52.43,30.98,30.2,86,22,8.95,few clouds,0.0,0.0
469,Amahai,ID,2020-04-20 00:20:40,-3.33,128.92,83.44,74,89,2.3,moderate rain,4.14,0.0
470,Puerto Suarez,BO,2020-04-20 00:20:40,-18.95,-57.8,76.1,69,31,1.77,scattered clouds,0.0,0.0
471,Vaitape,PF,2020-04-20 00:20:40,-16.52,-151.75,83.7,75,59,15.3,light rain,0.31,0.0
472,San Policarpo,PH,2020-04-20 00:20:41,12.18,125.51,82.33,83,95,13.11,light rain,0.4,0.0
473,Saint-Ambroise,CA,2020-04-20 00:20:41,48.55,-71.33,36.0,91,100,5.99,light snow,0.0,0.25
474,Chateaubelair,VC,2020-04-20 00:20:41,13.28,-61.25,77.0,76,4,1.01,clear sky,0.0,0.0
475,Boguchany,RU,2020-04-20 00:20:41,58.38,97.45,30.52,86,0,5.88,clear sky,0.0,0.0
476,Loukhi,RU,2020-04-20 00:20:42,66.08,33.04,29.7,97,61,5.35,broken clouds,0.0,0.0
477,Nanortalik,GL,2020-04-20 00:20:38,60.14,-45.24,28.4,89,6,9.46,clear sky,0.0,0.0
478,Aginskoye,RU,2020-04-20 00:20:42,51.1,114.53,22.08,72,66,17.05,broken clouds,0.0,0.0
479,Ostersund,SE,2020-04-20 00:20:42,63.18,14.64,37.4,86,56,9.17,broken clouds,0.0,0.0
480,Ibotirama,BR,2020-04-20 00:20:43,-12.19,-43.22,71.73,81,83,3.53,light rain,0.58,0.0
481,Coelho Neto,BR,2020-04-20 00:20:43,-4.26,-43.01,75.15,94,100,3.56,moderate rain,3.71,0.0
482,Nizhniy Tsasuchey,RU,2020-04-20 00:20:43,50.52,115.13,23.23,72,4,20.45,clear sky,0.0,0.0
483,Aksarka,RU,2020-04-20 00:20:43,66.56,67.8,33.1,94,100,6.93,overcast clouds,0.0,0.0
484,Trinidad,BO,2020-04-20 00:20:44,-14.83,-64.9,73.35,76,9,1.07,clear sky,0.0,0.0
485,Tecolutla,MX,2020-04-20 00:20:44,20.48,-97.02,91.4,59,5,6.93,clear sky,0.0,0.0
486,Bathsheba,BB,2020-04-20 00:20:44,13.22,-59.52,80.6,69,20,17.22,few clouds,0.0,0.0
487,Vestmannaeyjar,IS,2020-04-20 00:20:44,63.44,-20.27,46.08,93,100,28.1,light rain,0.2,0.0
488,Sapucaia,BR,2020-04-20 00:20:45,-29.83,-51.15,69.01,82,0,9.17,clear sky,0.0,0.0
489,Alugan,PH,2020-04-20 00:20:45,12.22,125.48,82.29,82,94,12.95,light rain,0.36,0.0
490,Jitauna,BR,2020-04-20 00:20:45,-14.02,-39.89,73.09,82,100,2.82,light rain,0.17,0.0
491,Roma,US,2020-04-20 00:17:18,43.21,-75.46,45.0,87,90,8.05,moderate rain,0.0,0.0
492,Bhatgaon,IN,2020-04-20 00:20:46,21.15,81.7,80.78,40,28,6.06,scattered clouds,0.0,0.0
493,Tarko-Sale,RU,2020-04-20 00:20:47,64.92,77.78,34.0,92,100,8.55,light rain,0.0,0.0
494,Novo Aripuana,BR,2020-04-20 00:20:47,-5.12,-60.38,74.79,96,87,3.27,light rain,1.81,0.0
495,Ravar,IR,2020-04-20 00:20:47,31.27,56.81,62.78,40,59,1.48,broken clouds,0.0,0.0
496,Powell River,CA,2020-04-20 00:20:47,49.85,-124.54,59.0,62,20,6.93,few clouds,0.0,0.0
497,Kui Buri,TH,2020-04-20 00:20:48,12.08,99.85,80.6,78,20,1.12,few clouds,0.0,0.0
498,Naliya,IN,2020-04-20 00:20:48,23.27,68.83,77.7,81,33,10.76,scattered clouds,0.0,0.0
499,Wasilla,US,2020-04-20 00:15:50,61.58,-149.44,53.6,54,90,4.7,overcast clouds,0.0,0.0
500,Kidal,ML,2020-04-20 00:20:48,18.44,1.41,86.61,12,71,8.99,broken clouds,0.0,0.0
501,Dongsheng,CN,2020-04-20 00:20:49,39.82,109.98,31.32,36,0,20.2,clear sky,0.0,0.0
502,Dingle,PH,2020-04-20 00:17:09,11.0,122.67,83.32,76,89,12.44,light rain,0.59,0.0
503,Namibe,AO,2020-04-20 00:20:49,-15.2,12.15,75.31,65,19,2.8,light rain,1.52,0.0
504,Praia,CV,2020-04-20 00:20:29,14.92,-23.51,71.6,64,20,19.46,few clouds,0.0,0.0
505,Chalus,IR,2020-04-20 00:20:50,36.66,51.42,55.4,100,90,2.24,mist,0.0,0.0
506,Khani,GE,2020-04-20 00:20:50,41.96,42.96,46.4,93,26,6.93,scattered clouds,0.0,0.0
507,Aswan,EG,2020-04-20 00:20:50,24.09,32.91,70.5,30,0,8.34,clear sky,0.0,0.0
508,Nienburg,DE,2020-04-20 00:20:51,52.63,9.22,44.6,45,0,12.75,clear sky,0.0,0.0
509,Petropavlovsk-Kamchatskiy,RU,2020-04-20 00:20:51,53.05,158.65,35.6,27,21,13.42,few clouds,0.0,0.0
510,Atambua,ID,2020-04-20 00:20:51,-9.11,124.89,78.87,67,11,1.95,few clouds,0.0,0.0
511,Zapolyarnyy,RU,2020-04-20 00:20:52,69.42,30.81,37.4,88,100,24.16,overcast clouds,0.0,0.0
512,Frontera,MX,2020-04-20 00:20:52,26.93,-101.45,100.0,10,19,1.01,few clouds,0.0,0.0
513,Kalmunai,LK,2020-04-20 00:20:52,7.42,81.82,81.91,79,65,5.12,light rain,0.13,0.0
514,Comodoro Rivadavia,AR,2020-04-20 00:15:57,-45.87,-67.5,59.0,38,0,17.22,clear sky,0.0,0.0
515,Moree,AU,2020-04-20 00:20:53,-29.47,149.85,66.2,39,84,9.17,broken clouds,0.0,0.0
516,Ulaanbaatar,MN,2020-04-20 00:18:33,47.91,106.88,17.6,61,40,4.47,scattered clouds,0.0,0.0
517,Florence,IT,2020-04-20 00:20:53,43.77,11.25,61.0,93,100,2.24,light rain,1.95,0.0
518,Itaunja,IN,2020-04-20 00:20:17,27.08,80.92,75.2,64,40,5.39,haze,0.0,0.0
519,Hovd,MN,2020-04-20 00:20:54,48.01,91.64,37.11,36,0,0.54,clear sky,0.0,0.0
520,Shingu,JP,2020-04-20 00:20:54,33.73,135.98,64.4,100,75,5.82,shower rain,0.0,0.0
521,Zyryanka,RU,2020-04-20 00:20:54,65.75,150.85,9.23,83,4,5.32,clear sky,0.0,0.0
522,Riviere-Au-Renard,CA,2020-04-20 00:20:55,49.0,-64.4,30.2,63,40,9.17,scattered clouds,0.0,0.0
523,Hokitika,NZ,2020-04-20 00:20:56,-42.72,170.97,53.92,70,93,5.5,light rain,1.29,0.0
524,La Ronge,CA,2020-04-20 00:19:18,55.1,-105.28,39.2,41,75,16.11,broken clouds,0.0,0.0
525,Sulangan,PH,2020-04-20 00:20:56,11.14,123.72,83.26,79,71,13.82,light rain,1.89,0.0
526,Tynda,RU,2020-04-20 00:20:57,55.17,124.72,18.55,76,67,14.18,broken clouds,0.0,0.0
527,Aklavik,CA,2020-04-20 00:20:57,68.22,-135.01,23.0,49,90,3.36,overcast clouds,0.0,0.0
528,Nassjo,SE,2020-04-20 00:20:57,57.65,14.7,28.4,92,50,2.24,scattered clouds,0.0,0.0
529,Nouadhibou,MR,2020-04-20 00:20:57,20.93,-17.03,66.2,77,0,23.04,sand,0.0,0.0
530,Henties Bay,NA,2020-04-20 00:16:35,-22.12,14.28,59.0,93,5,1.99,light rain,0.31,0.0
531,Yuanping,CN,2020-04-20 00:20:58,38.72,112.76,45.93,33,0,15.64,clear sky,0.0,0.0
532,Pascagoula,US,2020-04-20 00:20:58,30.37,-88.56,77.0,78,75,5.82,broken clouds,0.0,0.0
533,Porto Novo,BJ,2020-04-20 00:20:58,6.5,2.6,82.26,77,98,8.88,overcast clouds,0.0,0.0
534,Plettenberg Bay,ZA,2020-04-20 00:20:59,-34.05,23.37,66.9,59,0,4.85,clear sky,0.0,0.0
535,Vila,PT,2020-04-20 00:20:59,42.03,-8.16,50.0,93,40,2.24,scattered clouds,0.0,0.0
536,Arman,RU,2020-04-20 00:20:59,59.7,150.17,11.35,82,0,7.0,clear sky,0.0,0.0
537,Hami,CN,2020-04-20 00:20:59,42.8,93.45,57.22,21,98,6.22,overcast clouds,0.0,0.0
538,Valera,VE,2020-04-20 00:21:00,9.32,-70.6,76.68,63,91,0.98,moderate rain,3.45,0.0
539,Carballo,ES,2020-04-20 00:21:00,43.21,-8.69,53.01,89,52,1.01,broken clouds,0.0,0.0
540,Dandong,CN,2020-04-20 00:21:00,40.13,124.39,47.08,92,100,14.54,moderate rain,4.35,0.0
541,Lichuan,CN,2020-04-20 00:19:08,30.3,108.85,53.38,68,99,2.89,moderate rain,8.26,0.0
542,Araouane,ML,2020-04-20 00:21:01,18.9,-3.53,84.16,20,0,14.72,clear sky,0.0,0.0
543,Sept-Iles,CA,2020-04-20 00:21:01,50.2,-66.38,32.0,97,90,13.87,overcast clouds,0.0,0.0
544,Kailua,US,2020-04-20 00:21:01,21.4,-157.74,84.2,51,1,6.93,clear sky,0.0,0.0
545,Seddon,AU,2020-04-20 00:21:02,-37.81,144.89,66.0,59,75,23.04,broken clouds,0.0,0.0
546,Port Blair,IN,2020-04-20 00:20:52,11.67,92.75,83.32,77,11,6.38,few clouds,0.0,0.0
547,Te Anau,NZ,2020-04-20 00:21:02,-45.42,167.72,51.75,57,58,7.76,light rain,0.16,0.0
548,Tonj,SS,2020-04-20 00:17:07,7.27,28.68,76.77,57,100,7.92,overcast clouds,0.0,0.0
549,Sorland,NO,2020-04-20 00:21:03,67.67,12.69,40.82,94,100,19.01,light rain,0.45,0.0
550,Westport,US,2020-04-20 00:20:03,41.14,-73.36,55.99,66,1,19.46,clear sky,0.0,0.0
551,Belmonte,BR,2020-04-20 00:19:16,-15.86,-38.88,77.0,73,90,10.29,overcast clouds,0.0,0.0
552,Erzurum,TR,2020-04-20 00:21:04,40.0,41.5,35.6,40,75,3.36,broken clouds,0.0,0.0
553,Iracoubo,GF,2020-04-20 00:21:05,5.48,-53.2,79.3,86,100,14.99,moderate rain,3.47,0.0
554,Lorengau,PG,2020-04-20 00:21:05,-2.02,147.27,84.47,75,46,7.65,light rain,0.34,0.0
555,Aykhal,RU,2020-04-20 00:21:05,66.0,111.5,24.8,35,2,4.47,clear sky,0.0,0.0
556,Pietersburg,ZA,2020-04-20 00:20:06,-23.9,29.47,57.2,82,6,2.21,clear sky,0.0,0.0
557,Hobyo,SO,2020-04-20 00:20:01,5.35,48.53,84.02,74,100,9.66,overcast clouds,0.0,0.0
558,Isetskoye,RU,2020-04-20 00:21:06,56.49,65.32,39.16,70,20,5.97,few clouds,0.0,0.0
559,Waikuku,NZ,2020-04-20 00:21:07,-43.3,172.68,66.0,36,25,13.87,scattered clouds,0.0,0.0
560,Matara,LK,2020-04-20 00:21:07,5.95,80.54,77.85,90,20,7.0,few clouds,0.0,0.0
561,Kushmurun,KZ,2020-04-20 00:21:07,52.45,64.63,48.02,68,100,7.34,overcast clouds,0.0,0.0
562,Chapais,CA,2020-04-20 00:20:50,49.78,-74.85,15.8,56,40,10.29,scattered clouds,0.0,0.0
563,Kendari,ID,2020-04-20 00:21:08,-3.94,122.5,80.46,80,48,2.91,scattered clouds,0.0,0.0
564,Ahuimanu,US,2020-04-20 00:21:08,21.44,-157.84,84.2,51,1,6.93,clear sky,0.0,0.0
565,Sarakhs,IR,2020-04-20 00:21:08,36.54,61.16,55.4,82,0,4.7,clear sky,0.0,0.0
566,San Quintin,MX,2020-04-20 00:21:08,30.48,-115.95,62.33,66,87,18.21,overcast clouds,0.0,0.0
567,Conde,BR,2020-04-20 00:21:09,-7.26,-34.91,78.8,88,8,3.36,light rain,2.03,0.0
568,Acarau,BR,2020-04-20 00:16:34,-2.89,-40.12,77.36,87,28,3.53,light rain,0.56,0.0
569,Yarada,IN,2020-04-20 00:21:10,17.65,83.27,80.6,88,20,2.24,mist,0.0,0.0
570,Puerto Escondido,MX,2020-04-20 00:20:01,15.85,-97.07,84.2,83,5,5.82,clear sky,0.0,0.0
571,Neyshabur,IR,2020-04-20 00:21:11,36.21,58.8,55.02,37,7,1.81,clear sky,0.0,0.0
572,Husavik,IS,2020-04-20 00:12:49,66.04,-17.34,44.6,70,20,27.51,few clouds,0.0,0.0
573,Anantapur,IN,2020-04-20 00:21:13,14.68,77.6,77.7,54,30,5.08,scattered clouds,0.0,0.0
574,Adrar,MR,2020-04-20 00:21:13,20.5,-10.07,75.76,18,0,6.55,clear sky,0.0,0.0
575,Kundiawa,PG,2020-04-20 00:21:13,-6.02,144.97,74.12,42,89,2.73,light rain,1.22,0.0
576,Elk River,US,2020-04-20 00:21:13,45.3,-93.57,48.99,31,15,1.99,few clouds,0.0,0.0
577,Aksarayskiy,RU,2020-04-20 00:21:14,46.79,48.01,51.8,66,85,6.71,overcast clouds,0.0,0.0
578,Chumikan,RU,2020-04-20 00:21:14,54.72,135.31,23.67,95,100,17.11,snow,0.0,2.6
579,Zhezkazgan,KZ,2020-04-20 00:21:14,47.8,67.71,46.4,61,75,6.71,broken clouds,0.0,0.0
580,Mayumba,GA,2020-04-20 00:20:38,-3.43,10.66,79.09,85,90,12.33,moderate rain,4.28,0.0
581,Almeirim,BR,2020-04-20 00:21:15,-1.52,-52.58,74.89,96,100,5.26,moderate rain,4.87,0.0
582,Birjand,IR,2020-04-20 00:21:15,32.87,59.22,50.0,76,0,4.7,clear sky,0.0,0.0
